{
  "type": "FeatureCollection",
  "features": [
    {
      "type": "Feature",
      "properties": {
        "name": "Supermarche Rahman Inc",
        "rating": 3.3,
        "address": "151 Av. Laurier O, Montréal, QC H2T 2N6, Canada",
        "phone": "(514) 279-2566",
        "website": "",
        "business_status": "OPERATIONAL",
        "user_ratings_total": 45
      },
      "geometry": {
        "type": "Point",
        "coordinates": [
          -73.5946095,
          45.5212833
        ]
      }
    },
    {
      "type": "Feature",
      "properties": {
        "name": "Supermarché PA Du Parc",
        "rating": 4.4,
        "address": "5242 Av du Parc, Montréal, QC H2V 4G7, Canada",
        "phone": "(514) 273-8782",
        "website": "http://www.supermarchepa.com/",
        "business_status": "OPERATIONAL",
        "user_ratings_total": 2129
      },
      "geometry": {
        "type": "Point",
        "coordinates": [
          -73.5986429,
          45.5205325
        ]
      }
    },
    {
      "type": "Feature",
      "properties": {
        "name": "Épicerie PA Nature",
        "rating": 4.4,
        "address": "5029 Av du Parc, Montréal, QC H2V 4E9, Canada",
        "phone": "(514) 271-8788",
        "website": "http://pa-nature.supermarchepa.com/",
        "business_status": "OPERATIONAL",
        "user_ratings_total": 858
      },
      "geometry": {
        "type": "Point",
        "coordinates": [
          -73.5949498,
          45.5194182
        ]
      }
    },
    {
      "type": "Feature",
      "properties": {
        "name": "Bizzi market Montréal",
        "rating": 0,
        "address": "5242 Av du Parc, Montréal, QC H2V 4G7, Canada",
        "phone": "(438) 795-9473",
        "website": "",
        "business_status": "OPERATIONAL",
        "user_ratings_total": 0
      },
      "geometry": {
        "type": "Point",
        "coordinates": [
          -73.5987421,
          45.5203419
        ]
      }
    }
  ]
}